[
  {
    "id": "cinema_1",
    "name": "Filmpalast Berlin",
    "city": "Berlin",
    "address": "Hauptstraße 66, Berlin",
    "coordinates": {
      "lat": 50.0,
      "lng": 8.0
    },
    "chain": "Cineplex",
    "contact": {
      "phone": "+49 30 1234056",
      "website": "https://www.cinemaxx.de/berlin"
    },
    "list": {
      "today": ["13h", "15h", "17h"],
      "tomorrow": ["14h", "16h", "18h"],
      "day1": ["10h", "12h", "17h"],
      "day2": ["09h", "11h", "13h"],
      "day3": ["13h", "15h", "17h"],
      "day4": ["11h", "15h", "16h"],
      "day5": ["13h", "15h", "17h"],
      "day6": ["13h", "15h", "17h"]
    }
  },
  {
    "id": "cinema_2",
    "name": "Arthaus Kino Hamburg",
    "city": "Hamburg",
    "address": "Hauptstraße 84, Hamburg",
    "coordinates": {
      "lat": 50.2,
      "lng": 8.1
    },
    "chain": "CinemaxX",
    "contact": {
      "phone": "+49 30 1234156",
      "website": "https://www.cineplex.de/hamburg"
    },
    "list": {
      "today": ["13h", "15h", "17h"],
      "tomorrow": ["14h", "16h", "18h"],
      "day1": ["10h", "12h", "17h"],
      "day2": ["09h", "11h", "13h"],
      "day3": ["13h", "15h", "17h"],
      "day4": ["11h", "15h", "16h"],
      "day5": ["13h", "15h", "17h"],
      "day6": ["13h", "15h", "17h"]
    }
  },
  {
    "id": "cinema_3",
    "name": "CineStar München",
    "city": "München",
    "address": "Hauptstraße 4, München",
    "coordinates": {
      "lat": 50.4,
      "lng": 8.2
    },
    "chain": "UCI Kinowelt",
    "contact": {
      "phone": "+49 30 1234256",
      "website": "https://www.ucikinowelt.de/münchen"
    },
    "list": {
      "today": ["13h", "15h", "17h"],
      "tomorrow": ["14h", "16h", "18h"],
      "day1": ["10h", "12h", "17h"],
      "day2": ["09h", "11h", "13h"],
      "day3": ["13h", "15h", "17h"],
      "day4": ["11h", "15h", "16h"],
      "day5": ["13h", "15h", "17h"],
      "day6": ["13h", "15h", "17h"]
    }
  },
  {
    "id": "cinema_4",
    "name": "Luxor Köln",
    "city": "Köln",
    "address": "Hauptstraße 12, Köln",
    "coordinates": {
      "lat": 50.6,
      "lng": 8.3
    },
    "chain": "UCI Kinowelt",
    "contact": {
      "phone": "+49 30 1234356",
      "website": "https://www.arthauskino.de/köln"
    },
    "list": {
      "today": ["13h", "15h", "17h"],
      "tomorrow": ["14h", "16h", "18h"],
      "day1": ["10h", "12h", "17h"],
      "day2": ["09h", "11h", "13h"],
      "day3": ["13h", "15h", "17h"],
      "day4": ["11h", "15h", "16h"],
      "day5": ["13h", "15h", "17h"],
      "day6": ["13h", "15h", "17h"]
    }
  },
  {
    "id": "cinema_5",
    "name": "CinemaxX Frankfurt",
    "city": "Frankfurt",
    "address": "Hauptstraße 28, Frankfurt",
    "coordinates": {
      "lat": 50.8,
      "lng": 8.4
    },
    "chain": "Arthaus Kino",
    "contact": {
      "phone": "+49 30 1234456",
      "website": "https://www.luxor.de/frankfurt"
    },
    "list": {
      "today": ["13h", "15h", "17h"],
      "tomorrow": ["14h", "16h", "18h"],
      "day1": ["10h", "12h", "17h"],
      "day2": ["09h", "11h", "13h"],
      "day3": ["13h", "15h", "17h"],
      "day4": ["11h", "15h", "16h"],
      "day5": ["13h", "15h", "17h"],
      "day6": ["13h", "15h", "17h"]
    }
  },
  {
    "id": "cinema_6",
    "name": "UCI Kinowelt Stuttgart",
    "city": "Stuttgart",
    "address": "Hauptstraße 40, Stuttgart",
    "coordinates": {
      "lat": 51.0,
      "lng": 8.5
    },
    "chain": "UCI Kinowelt",
    "contact": {
      "phone": "+49 30 1234556",
      "website": "https://www.cinestar.de/stuttgart"
    },
    "list": {
      "today": ["13h", "15h", "17h"],
      "tomorrow": ["14h", "16h", "18h"],
      "day1": ["10h", "12h", "17h"],
      "day2": ["09h", "11h", "13h"],
      "day3": ["13h", "15h", "17h"],
      "day4": ["11h", "15h", "16h"],
      "day5": ["13h", "15h", "17h"],
      "day6": ["13h", "15h", "17h"]
    }
  },
  {
    "id": "cinema_7",
    "name": "CinemaxX Düsseldorf",
    "city": "Düsseldorf",
    "address": "Hauptstraße 20, Düsseldorf",
    "coordinates": {
      "lat": 51.2,
      "lng": 8.6
    },
    "chain": "Arthaus Kino",
    "contact": {
      "phone": "+49 30 1234656",
      "website": "https://www.filmpalast.de/düsseldorf"
    },
    "list": {
      "today": ["13h", "15h", "17h"],
      "tomorrow": ["14h", "16h", "18h"],
      "day1": ["10h", "12h", "17h"],
      "day2": ["09h", "11h", "13h"],
      "day3": ["13h", "15h", "17h"],
      "day4": ["11h", "15h", "16h"],
      "day5": ["13h", "15h", "17h"],
      "day6": ["13h", "15h", "17h"]
    }
  },
  {
    "id": "cinema_8",
    "name": "UCI Kinowelt Dresden",
    "city": "Dresden",
    "address": "Hauptstraße 36, Dresden",
    "coordinates": {
      "lat": 51.4,
      "lng": 8.7
    },
    "chain": "UCI Kinowelt",
    "contact": {
      "phone": "+49 30 1234756",
      "website": "https://www.cinemaxx.de/dresden"
    }
  },
  {
    "id": "cinema_9",
    "name": "UCI Kinowelt Leipzig",
    "city": "Leipzig",
    "address": "Hauptstraße 60, Leipzig",
    "coordinates": {
      "lat": 51.6,
      "lng": 8.8
    },
    "chain": "Luxor",
    "contact": {
      "phone": "+49 30 1234856",
      "website": "https://www.cineplex.de/leipzig"
    }
  },
  {
    "id": "cinema_10",
    "name": "Filmpalast Hannover",
    "city": "Hannover",
    "address": "Hauptstraße 1, Hannover",
    "coordinates": {
      "lat": 51.8,
      "lng": 8.9
    },
    "chain": "Luxor",
    "contact": {
      "phone": "+49 30 1234956",
      "website": "https://www.ucikinowelt.de/hannover"
    }
  }
]
